{"type": "FeatureCollection", "features": [{"type": "Feature", "geometry": {"type": "Point", "coordinates": [149.0026942, -35.4883502]}, "properties": {"location": "ACT, AUSTRALIA", "country": "AUSTRALIA", "state": "ACT", "count": 995}}, {"type": "Feature", "geometry": {"type": "Point", "coordinates": [66.2385139, 33.7680065]}, "properties": {"location": "AFGHANISTAN", "country": "AFGHANISTAN", "state": "UNKNOWN", "count": 1}}, {"type": "Feature", "geometry": {"type": "Point", "coordinates": [-149.680909, 64.4459613]}, "properties": {"location": "ALASKA, UNITED STATES OF AMERICA", "country": "UNITED STATES OF AMERICA", "state": "ALASKA", "count": 3}}, {"type": "Feature", "geometry": {"type": "Point", "coordinates": [2.9999825, 28.0000272]}, "properties": {"location": "ALGERIA", "country": "ALGERIA", "state": "UNKNOWN", "count": 1}}, {"type": "Feature", "geometry": {"type": "Point", "coordinates": [-170.7131481, -14.297124]}, "properties": {"location": "AMERICAN SAMOA, UNITED STATES OF AMERICA", "country": "UNITED STATES OF AMERICA", "state": "AMERICAN SAMOA", "count": 1}}, {"type": "Feature", "geometry": {"type": "Point", "coordinates": [-64.9672817, -34.9964963]}, "properties": {"location": "ARGENTINA", "country": "ARGENTINA", "state": "UNKNOWN", "count": 8}}, {"type": "Feature", "geometry": {"type": "Point", "coordinates": [-111.763275, 34.395342]}, "properties": {"location": "ARIZONA, UNITED STATES OF AMERICA", "country": "UNITED STATES OF AMERICA", "state": "ARIZONA", "count": 8}}, {"type": "Feature", "geometry": {"type": "Point", "coordinates": [-69.9618475, 12.5013629]}, "properties": {"location": "ARUBA", "country": "ARUBA", "state": "UNKNOWN", "count": 1}}, {"type": "Feature", "geometry": {"type": "Point", "coordinates": [134.755, -24.7761086]}, "properties": {"location": "AUSTRALIA", "country": "AUSTRALIA", "state": "UNKNOWN", "count": 75}}, {"type": "Feature", "geometry": {"type": "Point", "coordinates": [14.12456, 47.59397]}, "properties": {"location": "AUSTRIA", "country": "AUSTRIA", "state": "UNKNOWN", "count": 11}}, {"type": "Feature", "geometry": {"type": "Point", "coordinates": [14.12456, 47.59397]}, "properties": {"location": "AUSTRIA", "country": "AUSTRIA", "state": "UPPER AUSTRIA", "count": 1}}, {"type": "Feature", "geometry": {"type": "Point", "coordinates": [14.12456, 47.59397]}, "properties": {"location": "AUSTRIA", "country": "AUSTRIA", "state": "VIENNA", "count": 3}}, {"type": "Feature", "geometry": {"type": "Point", "coordinates": [50.5344606, 26.1551249]}, "properties": {"location": "BAHRAIN", "country": "BAHRAIN", "state": "UNKNOWN", "count": 3}}, {"type": "Feature", "geometry": {"type": "Point", "coordinates": [90.2934413, 24.4769288]}, "properties": {"location": "BANGLADESH", "country": "BANGLADESH", "state": "UNKNOWN", "count": 28}}, {"type": "Feature", "geometry": {"type": "Point", "coordinates": [116.412144, 40.190632]}, "properties": {"location": "BEIJING, CHINA", "country": "CHINA", "state": "BEIJING", "count": 11}}, {"type": "Feature", "geometry": {"type": "Point", "coordinates": [4.6667145, 50.6402809]}, "properties": {"location": "BELGIUM", "country": "BELGIUM", "state": "ANTWERP", "count": 2}}, {"type": "Feature", "geometry": {"type": "Point", "coordinates": [4.6667145, 50.6402809]}, "properties": {"location": "BELGIUM", "country": "BELGIUM", "state": "BRUSSELS", "count": 1}}, {"type": "Feature", "geometry": {"type": "Point", "coordinates": [4.6667145, 50.6402809]}, "properties": {"location": "BELGIUM", "country": "BELGIUM", "state": "BRUSSELS REGION", "count": 1}}, {"type": "Feature", "geometry": {"type": "Point", "coordinates": [4.6667145, 50.6402809]}, "properties": {"location": "BELGIUM", "country": "BELGIUM", "state": "UNKNOWN", "count": 5}}, {"type": "Feature", "geometry": {"type": "Point", "coordinates": [-64.7563086, 32.3040273]}, "properties": {"location": "BERMUDA", "country": "BERMUDA", "state": "UNKNOWN", "count": 1}}, {"type": "Feature", "geometry": {"type": "Point", "coordinates": [90.5119273, 27.549511]}, "properties": {"location": "BHUTAN", "country": "BHUTAN", "state": "UNKNOWN", "count": 1}}, {"type": "Feature", "geometry": {"type": "Point", "coordinates": [24.5928742, -23.1681782]}, "properties": {"location": "BOTSWANA", "country": "BOTSWANA", "state": "NORTH-WEST DISTRICT", "count": 1}}, {"type": "Feature", "geometry": {"type": "Point", "coordinates": [24.5928742, -23.1681782]}, "properties": {"location": "BOTSWANA", "country": "BOTSWANA", "state": "UNKNOWN", "count": 6}}, {"type": "Feature", "geometry": {"type": "Point", "coordinates": [-53.2, -10.3333333]}, "properties": {"location": "BRAZIL", "country": "BRAZIL", "state": "ESP\u00cdRITO SANTO", "count": 1}}, {"type": "Feature", "geometry": {"type": "Point", "coordinates": [-53.2, -10.3333333]}, "properties": {"location": "BRAZIL", "country": "BRAZIL", "state": "FEDERAL DISTRICT", "count": 1}}, {"type": "Feature", "geometry": {"type": "Point", "coordinates": [-53.2, -10.3333333]}, "properties": {"location": "BRAZIL", "country": "BRAZIL", "state": "S\u00c3O PAULO", "count": 1}}, {"type": "Feature", "geometry": {"type": "Point", "coordinates": [-53.2, -10.3333333]}, "properties": {"location": "BRAZIL", "country": "BRAZIL", "state": "UNKNOWN", "count": 11}}, {"type": "Feature", "geometry": {"type": "Point", "coordinates": [114.5653908, 4.4137155]}, "properties": {"location": "BRUNEI", "country": "BRUNEI", "state": "UNKNOWN", "count": 7}}, {"type": "Feature", "geometry": {"type": "Point", "coordinates": [25.4856617, 42.6073975]}, "properties": {"location": "BULGARIA", "country": "BULGARIA", "state": "UNKNOWN", "count": 1}}, {"type": "Feature", "geometry": {"type": "Point", "coordinates": [-118.755997, 36.7014631]}, "properties": {"location": "CALIFORNIA, UNITED STATES OF AMERICA", "country": "UNITED STATES OF AMERICA", "state": "CALIFORNIA", "count": 151}}, {"type": "Feature", "geometry": {"type": "Point", "coordinates": [104.8144914, 12.5433216]}, "properties": {"location": "CAMBODIA", "country": "CAMBODIA", "state": "UNKNOWN", "count": 2}}, {"type": "Feature", "geometry": {"type": "Point", "coordinates": [-107.991707, 61.0666922]}, "properties": {"location": "CANADA", "country": "CANADA", "state": "ALBERTA", "count": 23}}, {"type": "Feature", "geometry": {"type": "Point", "coordinates": [-107.991707, 61.0666922]}, "properties": {"location": "CANADA", "country": "CANADA", "state": "BRITISH COLUMBIA", "count": 57}}, {"type": "Feature", "geometry": {"type": "Point", "coordinates": [-107.991707, 61.0666922]}, "properties": {"location": "CANADA", "country": "CANADA", "state": "MANITOBA", "count": 4}}, {"type": "Feature", "geometry": {"type": "Point", "coordinates": [-107.991707, 61.0666922]}, "properties": {"location": "CANADA", "country": "CANADA", "state": "NEW BRUNSWICK", "count": 3}}, {"type": "Feature", "geometry": {"type": "Point", "coordinates": [-107.991707, 61.0666922]}, "properties": {"location": "CANADA", "country": "CANADA", "state": "NEWFOUNDLAND & LABRADOR", "count": 1}}, {"type": "Feature", "geometry": {"type": "Point", "coordinates": [-107.991707, 61.0666922]}, "properties": {"location": "CANADA", "country": "CANADA", "state": "NOVA SCOTIA", "count": 6}}, {"type": "Feature", "geometry": {"type": "Point", "coordinates": [-107.991707, 61.0666922]}, "properties": {"location": "CANADA", "country": "CANADA", "state": "ONTARIO", "count": 88}}, {"type": "Feature", "geometry": {"type": "Point", "coordinates": [-107.991707, 61.0666922]}, "properties": {"location": "CANADA", "country": "CANADA", "state": "PRINCE EDWARD ISLAND", "count": 1}}, {"type": "Feature", "geometry": {"type": "Point", "coordinates": [-107.991707, 61.0666922]}, "properties": {"location": "CANADA", "country": "CANADA", "state": "QUEBEC", "count": 15}}, {"type": "Feature", "geometry": {"type": "Point", "coordinates": [-107.991707, 61.0666922]}, "properties": {"location": "CANADA", "country": "CANADA", "state": "SASKATCHEWAN", "count": 2}}, {"type": "Feature", "geometry": {"type": "Point", "coordinates": [-107.991707, 61.0666922]}, "properties": {"location": "CANADA", "country": "CANADA", "state": "UNKNOWN", "count": 16}}, {"type": "Feature", "geometry": {"type": "Point", "coordinates": [-107.991707, 61.0666922]}, "properties": {"location": "CANADA", "country": "CANADA", "state": "WELLINGTON", "count": 1}}, {"type": "Feature", "geometry": {"type": "Point", "coordinates": [-79.9174627, 19.7031822]}, "properties": {"location": "CAYMAN ISLANDS", "country": "CAYMAN ISLANDS", "state": "UNKNOWN", "count": 1}}, {"type": "Feature", "geometry": {"type": "Point", "coordinates": [-71.3187697, -31.7613365]}, "properties": {"location": "CHILE", "country": "CHILE", "state": "AYS\u00c9N REGION", "count": 1}}, {"type": "Feature", "geometry": {"type": "Point", "coordinates": [-71.3187697, -31.7613365]}, "properties": {"location": "CHILE", "country": "CHILE", "state": "SANTIAGO METROPOLITAN REGION", "count": 2}}, {"type": "Feature", "geometry": {"type": "Point", "coordinates": [-71.3187697, -31.7613365]}, "properties": {"location": "CHILE", "country": "CHILE", "state": "UNKNOWN", "count": 9}}, {"type": "Feature", "geometry": {"type": "Point", "coordinates": [104.999955, 35.0000663]}, "properties": {"location": "CHINA", "country": "CHINA", "state": "UNKNOWN", "count": 1047}}, {"type": "Feature", "geometry": {"type": "Point", "coordinates": [-72.9088133, 4.099917]}, "properties": {"location": "COLOMBIA", "country": "COLOMBIA", "state": "ANTIOQUIA", "count": 1}}, {"type": "Feature", "geometry": {"type": "Point", "coordinates": [-72.9088133, 4.099917]}, "properties": {"location": "COLOMBIA", "country": "COLOMBIA", "state": "UNKNOWN", "count": 5}}, {"type": "Feature", "geometry": {"type": "Point", "coordinates": [-105.607716, 38.7251776]}, "properties": {"location": "COLORADO, UNITED STATES OF AMERICA", "country": "UNITED STATES OF AMERICA", "state": "COLORADO", "count": 19}}, {"type": "Feature", "geometry": {"type": "Point", "coordinates": [-72.7342163, 41.6500201]}, "properties": {"location": "CONNECTICUT, UNITED STATES OF AMERICA", "country": "UNITED STATES OF AMERICA", "state": "CONNECTICUT", "count": 7}}, {"type": "Feature", "geometry": {"type": "Point", "coordinates": [32.8899027, 34.9174159]}, "properties": {"location": "CYPRUS", "country": "CYPRUS", "state": "UNKNOWN", "count": 7}}, {"type": "Feature", "geometry": {"type": "Point", "coordinates": [15.3381061, 49.7439047]}, "properties": {"location": "CZECH REPUBLIC", "country": "CZECH REPUBLIC", "state": "UNKNOWN", "count": 1}}, {"type": "Feature", "geometry": {"type": "Point", "coordinates": [-75.4013315, 38.6920451]}, "properties": {"location": "DELAWARE, UNITED STATES OF AMERICA", "country": "UNITED STATES OF AMERICA", "state": "DELAWARE", "count": 1}}, {"type": "Feature", "geometry": {"type": "Point", "coordinates": [10.3333283, 55.670249]}, "properties": {"location": "DENMARK", "country": "DENMARK", "state": "CAPITAL REGION", "count": 1}}, {"type": "Feature", "geometry": {"type": "Point", "coordinates": [10.3333283, 55.670249]}, "properties": {"location": "DENMARK", "country": "DENMARK", "state": "CAPITAL REGION OF DENMARK", "count": 4}}, {"type": "Feature", "geometry": {"type": "Point", "coordinates": [10.3333283, 55.670249]}, "properties": {"location": "DENMARK", "country": "DENMARK", "state": "MIDDLE JUTLAND", "count": 1}}, {"type": "Feature", "geometry": {"type": "Point", "coordinates": [10.3333283, 55.670249]}, "properties": {"location": "DENMARK", "country": "DENMARK", "state": "REGION HOVEDSTADEN", "count": 1}}, {"type": "Feature", "geometry": {"type": "Point", "coordinates": [10.3333283, 55.670249]}, "properties": {"location": "DENMARK", "country": "DENMARK", "state": "SOUTH DENMARK", "count": 1}}, {"type": "Feature", "geometry": {"type": "Point", "coordinates": [10.3333283, 55.670249]}, "properties": {"location": "DENMARK", "country": "DENMARK", "state": "UNKNOWN", "count": 11}}, {"type": "Feature", "geometry": {"type": "Point", "coordinates": [-77.0365427, 38.8950368]}, "properties": {"location": "DISTRICT OF COLUMBIA, UNITED STATES OF AMERICA", "country": "UNITED STATES OF AMERICA", "state": "DISTRICT OF COLUMBIA", "count": 10}}, {"type": "Feature", "geometry": {"type": "Point", "coordinates": [126.063482, -8.7443169]}, "properties": {"location": "EAST TIMOR", "country": "EAST TIMOR", "state": "DILI", "count": 2}}, {"type": "Feature", "geometry": {"type": "Point", "coordinates": [126.063482, -8.7443169]}, "properties": {"location": "EAST TIMOR", "country": "EAST TIMOR", "state": "UNKNOWN", "count": 1}}, {"type": "Feature", "geometry": {"type": "Point", "coordinates": [-79.3666965, -1.3397668]}, "properties": {"location": "ECUADOR", "country": "ECUADOR", "state": "UNKNOWN", "count": 1}}, {"type": "Feature", "geometry": {"type": "Point", "coordinates": [29.2675469, 26.2540493]}, "properties": {"location": "EGYPT", "country": "EGYPT", "state": "UNKNOWN", "count": 2}}, {"type": "Feature", "geometry": {"type": "Point", "coordinates": [-1.2649062, 52.5310214]}, "properties": {"location": "ENGLAND, UNITED KINGDOM", "country": "UNITED KINGDOM", "state": "ENGLAND", "count": 229}}, {"type": "Feature", "geometry": {"type": "Point", "coordinates": [38.6521203, 10.2116702]}, "properties": {"location": "ETHIOPIA", "country": "ETHIOPIA", "state": "UNKNOWN", "count": 2}}, {"type": "Feature", "geometry": {"type": "Point", "coordinates": [151.8327443, 8.6062347]}, "properties": {"location": "FEDERATED STATES OF MICRONESIA", "country": "FEDERATED STATES OF MICRONESIA", "state": "UNKNOWN", "count": 1}}, {"type": "Feature", "geometry": {"type": "Point", "coordinates": [179.0122737, -18.1239696]}, "properties": {"location": "FIJI", "country": "FIJI", "state": "CENTRAL", "count": 1}}, {"type": "Feature", "geometry": {"type": "Point", "coordinates": [179.0122737, -18.1239696]}, "properties": {"location": "FIJI", "country": "FIJI", "state": "UNKNOWN", "count": 16}}, {"type": "Feature", "geometry": {"type": "Point", "coordinates": [25.9209164, 63.2467777]}, "properties": {"location": "FINLAND", "country": "FINLAND", "state": "UUSIMAA", "count": 1}}, {"type": "Feature", "geometry": {"type": "Point", "coordinates": [-81.4639835, 27.7567667]}, "properties": {"location": "FLORIDA, UNITED STATES OF AMERICA", "country": "UNITED STATES OF AMERICA", "state": "FLORIDA", "count": 19}}, {"type": "Feature", "geometry": {"type": "Point", "coordinates": [1.8883335, 46.603354]}, "properties": {"location": "FRANCE", "country": "FRANCE", "state": "AUVERGNE-RHNE-ALPES", "count": 1}}, {"type": "Feature", "geometry": {"type": "Point", "coordinates": [1.8883335, 46.603354]}, "properties": {"location": "FRANCE", "country": "FRANCE", "state": "AUVERGNE-RH\u00d4NE-ALPES", "count": 3}}, {"type": "Feature", "geometry": {"type": "Point", "coordinates": [1.8883335, 46.603354]}, "properties": {"location": "FRANCE", "country": "FRANCE", "state": "LE-DE-FRANCE", "count": 5}}, {"type": "Feature", "geometry": {"type": "Point", "coordinates": [1.8883335, 46.603354]}, "properties": {"location": "FRANCE", "country": "FRANCE", "state": "NOUVELLE-AQUITAINE", "count": 2}}, {"type": "Feature", "geometry": {"type": "Point", "coordinates": [1.8883335, 46.603354]}, "properties": {"location": "FRANCE", "country": "FRANCE", "state": "OCCITANIE", "count": 1}}, {"type": "Feature", "geometry": {"type": "Point", "coordinates": [1.8883335, 46.603354]}, "properties": {"location": "FRANCE", "country": "FRANCE", "state": "PROVENCE-ALPES-C\u00d4TE D'AZUR", "count": 1}}, {"type": "Feature", "geometry": {"type": "Point", "coordinates": [1.8883335, 46.603354]}, "properties": {"location": "FRANCE", "country": "FRANCE", "state": "RHNE-ALPES", "count": 1}}, {"type": "Feature", "geometry": {"type": "Point", "coordinates": [1.8883335, 46.603354]}, "properties": {"location": "FRANCE", "country": "FRANCE", "state": "UNKNOWN", "count": 26}}, {"type": "Feature", "geometry": {"type": "Point", "coordinates": [1.8883335, 46.603354]}, "properties": {"location": "FRANCE", "country": "FRANCE", "state": "\u00ceLE-DE-FRANCE", "count": 6}}, {"type": "Feature", "geometry": {"type": "Point", "coordinates": [-144.6434898, -17.0243749]}, "properties": {"location": "FRENCH POLYNESIA", "country": "FRENCH POLYNESIA", "state": "\u00ceLES DU VENT", "count": 1}}, {"type": "Feature", "geometry": {"type": "Point", "coordinates": [-83.1137366, 32.3293809]}, "properties": {"location": "GEORGIA", "country": "GEORGIA", "state": "AJARIA", "count": 1}}, {"type": "Feature", "geometry": {"type": "Point", "coordinates": [-83.1137366, 32.3293809]}, "properties": {"location": "GEORGIA, UNITED STATES OF AMERICA", "country": "UNITED STATES OF AMERICA", "state": "GEORGIA", "count": 10}}, {"type": "Feature", "geometry": {"type": "Point", "coordinates": [10.4478313, 51.1638175]}, "properties": {"location": "GERMANY", "country": "GERMANY", "state": "BADEN-WURTTEMBERG", "count": 1}}, {"type": "Feature", "geometry": {"type": "Point", "coordinates": [10.4478313, 51.1638175]}, "properties": {"location": "GERMANY", "country": "GERMANY", "state": "BAVARIA", "count": 2}}, {"type": "Feature", "geometry": {"type": "Point", "coordinates": [10.4478313, 51.1638175]}, "properties": {"location": "GERMANY", "country": "GERMANY", "state": "BERLIN", "count": 5}}, {"type": "Feature", "geometry": {"type": "Point", "coordinates": [10.4478313, 51.1638175]}, "properties": {"location": "GERMANY", "country": "GERMANY", "state": "BRANDENBURG", "count": 2}}, {"type": "Feature", "geometry": {"type": "Point", "coordinates": [10.4478313, 51.1638175]}, "properties": {"location": "GERMANY", "country": "GERMANY", "state": "HAMBURG", "count": 1}}, {"type": "Feature", "geometry": {"type": "Point", "coordinates": [10.4478313, 51.1638175]}, "properties": {"location": "GERMANY", "country": "GERMANY", "state": "HESSE", "count": 2}}, {"type": "Feature", "geometry": {"type": "Point", "coordinates": [10.4478313, 51.1638175]}, "properties": {"location": "GERMANY", "country": "GERMANY", "state": "LOWER SAXONY", "count": 1}}, {"type": "Feature", "geometry": {"type": "Point", "coordinates": [10.4478313, 51.1638175]}, "properties": {"location": "GERMANY", "country": "GERMANY", "state": "NORDRHEIN-WESTFALEN", "count": 1}}, {"type": "Feature", "geometry": {"type": "Point", "coordinates": [10.4478313, 51.1638175]}, "properties": {"location": "GERMANY", "country": "GERMANY", "state": "NORTH RHINE-WESTPHALIA", "count": 2}}, {"type": "Feature", "geometry": {"type": "Point", "coordinates": [10.4478313, 51.1638175]}, "properties": {"location": "GERMANY", "country": "GERMANY", "state": "RHINELAND-PALATINATE", "count": 2}}, {"type": "Feature", "geometry": {"type": "Point", "coordinates": [10.4478313, 51.1638175]}, "properties": {"location": "GERMANY", "country": "GERMANY", "state": "SAARLAND", "count": 1}}, {"type": "Feature", "geometry": {"type": "Point", "coordinates": [10.4478313, 51.1638175]}, "properties": {"location": "GERMANY", "country": "GERMANY", "state": "SAXONY", "count": 2}}, {"type": "Feature", "geometry": {"type": "Point", "coordinates": [10.4478313, 51.1638175]}, "properties": {"location": "GERMANY", "country": "GERMANY", "state": "UNKNOWN", "count": 57}}, {"type": "Feature", "geometry": {"type": "Point", "coordinates": [-1.0800271, 8.0300284]}, "properties": {"location": "GHANA", "country": "GHANA", "state": "UNKNOWN", "count": 4}}, {"type": "Feature", "geometry": {"type": "Point", "coordinates": [21.9877132, 38.9953683]}, "properties": {"location": "GREECE", "country": "GREECE", "state": "UNKNOWN", "count": 8}}, {"type": "Feature", "geometry": {"type": "Point", "coordinates": [113.1982688, 23.1357694]}, "properties": {"location": "GUANGDONG, CHINA", "country": "CHINA", "state": "GUANGDONG", "count": 4}}, {"type": "Feature", "geometry": {"type": "Point", "coordinates": [-58.6416891, 4.8417097]}, "properties": {"location": "GUYANA", "country": "GUYANA", "state": "UNKNOWN", "count": 2}}, {"type": "Feature", "geometry": {"type": "Point", "coordinates": [-155.4283701, 19.5938015]}, "properties": {"location": "HAWAII, UNITED STATES OF AMERICA", "country": "UNITED STATES OF AMERICA", "state": "HAWAII", "count": 7}}, {"type": "Feature", "geometry": {"type": "Point", "coordinates": [-86.0755145, 15.2572432]}, "properties": {"location": "HONDURAS", "country": "HONDURAS", "state": "UNKNOWN", "count": 1}}, {"type": "Feature", "geometry": {"type": "Point", "coordinates": [114.1849161, 22.350627]}, "properties": {"location": "HONG KONG SAR, CHINA", "country": "CHINA", "state": "HONG KONG SAR", "count": 1148}}, {"type": "Feature", "geometry": {"type": "Point", "coordinates": [116.0, 39.0000001]}, "properties": {"location": "HUBEI, CHINA", "country": "CHINA", "state": "HUBEI", "count": 1}}, {"type": "Feature", "geometry": {"type": "Point", "coordinates": [19.5060937, 47.1817585]}, "properties": {"location": "HUNGARY", "country": "HUNGARY", "state": "BUDAPEST", "count": 1}}, {"type": "Feature", "geometry": {"type": "Point", "coordinates": [19.5060937, 47.1817585]}, "properties": {"location": "HUNGARY", "country": "HUNGARY", "state": "UNKNOWN", "count": 3}}, {"type": "Feature", "geometry": {"type": "Point", "coordinates": [-114.015407, 43.6447642]}, "properties": {"location": "IDAHO, UNITED STATES OF AMERICA", "country": "UNITED STATES OF AMERICA", "state": "IDAHO", "count": 2}}, {"type": "Feature", "geometry": {"type": "Point", "coordinates": [-89.4337288, 40.0796606]}, "properties": {"location": "ILLINOIS, UNITED STATES OF AMERICA", "country": "UNITED STATES OF AMERICA", "state": "ILLINOIS", "count": 20}}, {"type": "Feature", "geometry": {"type": "Point", "coordinates": [78.6677428, 22.3511148]}, "properties": {"location": "INDIA", "country": "INDIA", "state": "DELHI", "count": 3}}, {"type": "Feature", "geometry": {"type": "Point", "coordinates": [78.6677428, 22.3511148]}, "properties": {"location": "INDIA", "country": "INDIA", "state": "GUJARAT", "count": 1}}, {"type": "Feature", "geometry": {"type": "Point", "coordinates": [78.6677428, 22.3511148]}, "properties": {"location": "INDIA", "country": "INDIA", "state": "JHARKHAND", "count": 2}}, {"type": "Feature", "geometry": {"type": "Point", "coordinates": [78.6677428, 22.3511148]}, "properties": {"location": "INDIA", "country": "INDIA", "state": "KARNATAKA", "count": 3}}, {"type": "Feature", "geometry": {"type": "Point", "coordinates": [78.6677428, 22.3511148]}, "properties": {"location": "INDIA", "country": "INDIA", "state": "MAHARASHTRA", "count": 2}}, {"type": "Feature", "geometry": {"type": "Point", "coordinates": [78.6677428, 22.3511148]}, "properties": {"location": "INDIA", "country": "INDIA", "state": "TAMIL NADU", "count": 1}}, {"type": "Feature", "geometry": {"type": "Point", "coordinates": [78.6677428, 22.3511148]}, "properties": {"location": "INDIA", "country": "INDIA", "state": "TELANGANA", "count": 1}}, {"type": "Feature", "geometry": {"type": "Point", "coordinates": [78.6677428, 22.3511148]}, "properties": {"location": "INDIA", "country": "INDIA", "state": "UNKNOWN", "count": 69}}, {"type": "Feature", "geometry": {"type": "Point", "coordinates": [-86.1746933, 40.3270127]}, "properties": {"location": "INDIANA, UNITED STATES OF AMERICA", "country": "UNITED STATES OF AMERICA", "state": "INDIANA", "count": 3}}, {"type": "Feature", "geometry": {"type": "Point", "coordinates": [117.8902853, -2.4833826]}, "properties": {"location": "INDONESIA", "country": "INDONESIA", "state": "BALI", "count": 2}}, {"type": "Feature", "geometry": {"type": "Point", "coordinates": [117.8902853, -2.4833826]}, "properties": {"location": "INDONESIA", "country": "INDONESIA", "state": "BANTEN", "count": 2}}, {"type": "Feature", "geometry": {"type": "Point", "coordinates": [117.8902853, -2.4833826]}, "properties": {"location": "INDONESIA", "country": "INDONESIA", "state": "CENTRAL JAVA", "count": 3}}, {"type": "Feature", "geometry": {"type": "Point", "coordinates": [117.8902853, -2.4833826]}, "properties": {"location": "INDONESIA", "country": "INDONESIA", "state": "EAST JAVA", "count": 3}}, {"type": "Feature", "geometry": {"type": "Point", "coordinates": [117.8902853, -2.4833826]}, "properties": {"location": "INDONESIA", "country": "INDONESIA", "state": "JAKARTA", "count": 20}}, {"type": "Feature", "geometry": {"type": "Point", "coordinates": [117.8902853, -2.4833826]}, "properties": {"location": "INDONESIA", "country": "INDONESIA", "state": "JAKARTA RAYA", "count": 8}}, {"type": "Feature", "geometry": {"type": "Point", "coordinates": [117.8902853, -2.4833826]}, "properties": {"location": "INDONESIA", "country": "INDONESIA", "state": "JAWA BARAT", "count": 3}}, {"type": "Feature", "geometry": {"type": "Point", "coordinates": [117.8902853, -2.4833826]}, "properties": {"location": "INDONESIA", "country": "INDONESIA", "state": "RIAU", "count": 1}}, {"type": "Feature", "geometry": {"type": "Point", "coordinates": [117.8902853, -2.4833826]}, "properties": {"location": "INDONESIA", "country": "INDONESIA", "state": "SUMATERA UTARA", "count": 1}}, {"type": "Feature", "geometry": {"type": "Point", "coordinates": [117.8902853, -2.4833826]}, "properties": {"location": "INDONESIA", "country": "INDONESIA", "state": "UNKNOWN", "count": 455}}, {"type": "Feature", "geometry": {"type": "Point", "coordinates": [117.8902853, -2.4833826]}, "properties": {"location": "INDONESIA", "country": "INDONESIA", "state": "WEST JAVA", "count": 11}}, {"type": "Feature", "geometry": {"type": "Point", "coordinates": [117.8902853, -2.4833826]}, "properties": {"location": "INDONESIA", "country": "INDONESIA", "state": "WEST KALIMANTAN", "count": 1}}, {"type": "Feature", "geometry": {"type": "Point", "coordinates": [-93.3122705, 41.9216734]}, "properties": {"location": "IOWA, UNITED STATES OF AMERICA", "country": "UNITED STATES OF AMERICA", "state": "IOWA", "count": 4}}, {"type": "Feature", "geometry": {"type": "Point", "coordinates": [54.5643516, 32.6475314]}, "properties": {"location": "IRAN", "country": "IRAN", "state": "TEHRAN", "count": 1}}, {"type": "Feature", "geometry": {"type": "Point", "coordinates": [54.5643516, 32.6475314]}, "properties": {"location": "IRAN", "country": "IRAN", "state": "UNKNOWN", "count": 15}}, {"type": "Feature", "geometry": {"type": "Point", "coordinates": [44.1749775, 33.0955793]}, "properties": {"location": "IRAQ", "country": "IRAQ", "state": "UNKNOWN", "count": 3}}, {"type": "Feature", "geometry": {"type": "Point", "coordinates": [-7.9794599, 52.865196]}, "properties": {"location": "IRELAND", "country": "IRELAND", "state": "CORK", "count": 1}}, {"type": "Feature", "geometry": {"type": "Point", "coordinates": [-7.9794599, 52.865196]}, "properties": {"location": "IRELAND", "country": "IRELAND", "state": "COUNTY CORK", "count": 2}}, {"type": "Feature", "geometry": {"type": "Point", "coordinates": [-7.9794599, 52.865196]}, "properties": {"location": "IRELAND", "country": "IRELAND", "state": "COUNTY DUBLIN", "count": 7}}, {"type": "Feature", "geometry": {"type": "Point", "coordinates": [-7.9794599, 52.865196]}, "properties": {"location": "IRELAND", "country": "IRELAND", "state": "COUNTY GALWAY", "count": 1}}, {"type": "Feature", "geometry": {"type": "Point", "coordinates": [-7.9794599, 52.865196]}, "properties": {"location": "IRELAND", "country": "IRELAND", "state": "COUNTY WATERFORD", "count": 1}}, {"type": "Feature", "geometry": {"type": "Point", "coordinates": [-7.9794599, 52.865196]}, "properties": {"location": "IRELAND", "country": "IRELAND", "state": "UNKNOWN", "count": 15}}, {"type": "Feature", "geometry": {"type": "Point", "coordinates": [34.8594762, 30.8124247]}, "properties": {"location": "ISRAEL", "country": "ISRAEL", "state": "CENTER DISTRICT", "count": 2}}, {"type": "Feature", "geometry": {"type": "Point", "coordinates": [34.8594762, 30.8124247]}, "properties": {"location": "ISRAEL", "country": "ISRAEL", "state": "HAIFA DISTRICT", "count": 1}}, {"type": "Feature", "geometry": {"type": "Point", "coordinates": [34.8594762, 30.8124247]}, "properties": {"location": "ISRAEL", "country": "ISRAEL", "state": "TEL AVIV DISTRICT", "count": 1}}, {"type": "Feature", "geometry": {"type": "Point", "coordinates": [34.8594762, 30.8124247]}, "properties": {"location": "ISRAEL", "country": "ISRAEL", "state": "UNKNOWN", "count": 23}}, {"type": "Feature", "geometry": {"type": "Point", "coordinates": [12.674297, 42.6384261]}, "properties": {"location": "ITALY", "country": "ITALY", "state": "LOMBARDY", "count": 1}}, {"type": "Feature", "geometry": {"type": "Point", "coordinates": [12.674297, 42.6384261]}, "properties": {"location": "ITALY", "country": "ITALY", "state": "TOSCANA", "count": 1}}, {"type": "Feature", "geometry": {"type": "Point", "coordinates": [12.674297, 42.6384261]}, "properties": {"location": "ITALY", "country": "ITALY", "state": "UNKNOWN", "count": 18}}, {"type": "Feature", "geometry": {"type": "Point", "coordinates": [12.674297, 42.6384261]}, "properties": {"location": "ITALY", "country": "ITALY", "state": "VENETO", "count": 1}}, {"type": "Feature", "geometry": {"type": "Point", "coordinates": [-77.3947693, 18.1850507]}, "properties": {"location": "JAMAICA", "country": "JAMAICA", "state": "UNKNOWN", "count": 4}}, {"type": "Feature", "geometry": {"type": "Point", "coordinates": [139.2394179, 36.5748441]}, "properties": {"location": "JAPAN", "country": "JAPAN", "state": "AICHI", "count": 2}}, {"type": "Feature", "geometry": {"type": "Point", "coordinates": [139.2394179, 36.5748441]}, "properties": {"location": "JAPAN", "country": "JAPAN", "state": "FUKUSHIMA", "count": 1}}, {"type": "Feature", "geometry": {"type": "Point", "coordinates": [139.2394179, 36.5748441]}, "properties": {"location": "JAPAN", "country": "JAPAN", "state": "HYOGO", "count": 2}}, {"type": "Feature", "geometry": {"type": "Point", "coordinates": [139.2394179, 36.5748441]}, "properties": {"location": "JAPAN", "country": "JAPAN", "state": "KANAGAWA", "count": 1}}, {"type": "Feature", "geometry": {"type": "Point", "coordinates": [139.2394179, 36.5748441]}, "properties": {"location": "JAPAN", "country": "JAPAN", "state": "KYOTO", "count": 1}}, {"type": "Feature", "geometry": {"type": "Point", "coordinates": [139.2394179, 36.5748441]}, "properties": {"location": "JAPAN", "country": "JAPAN", "state": "MIYAGI", "count": 2}}, {"type": "Feature", "geometry": {"type": "Point", "coordinates": [139.2394179, 36.5748441]}, "properties": {"location": "JAPAN", "country": "JAPAN", "state": "TOKYO", "count": 6}}, {"type": "Feature", "geometry": {"type": "Point", "coordinates": [139.2394179, 36.5748441]}, "properties": {"location": "JAPAN", "country": "JAPAN", "state": "TOKYO PREFECTURE", "count": 6}}, {"type": "Feature", "geometry": {"type": "Point", "coordinates": [139.2394179, 36.5748441]}, "properties": {"location": "JAPAN", "country": "JAPAN", "state": "UNKNOWN", "count": 69}}, {"type": "Feature", "geometry": {"type": "Point", "coordinates": [119.9999999, 33.0000001]}, "properties": {"location": "JIANGSU, CHINA", "country": "CHINA", "state": "JIANGSU", "count": 2}}, {"type": "Feature", "geometry": {"type": "Point", "coordinates": [36.941628, 31.1667049]}, "properties": {"location": "JORDAN", "country": "JORDAN", "state": "NY", "count": 1}}, {"type": "Feature", "geometry": {"type": "Point", "coordinates": [36.941628, 31.1667049]}, "properties": {"location": "JORDAN", "country": "JORDAN", "state": "UNKNOWN", "count": 4}}, {"type": "Feature", "geometry": {"type": "Point", "coordinates": [-98.5821872, 38.27312]}, "properties": {"location": "KANSAS, UNITED STATES OF AMERICA", "country": "UNITED STATES OF AMERICA", "state": "KANSAS", "count": 3}}, {"type": "Feature", "geometry": {"type": "Point", "coordinates": [66.7780818, 48.1012954]}, "properties": {"location": "KAZAKHSTAN", "country": "KAZAKHSTAN", "state": "UNKNOWN", "count": 1}}, {"type": "Feature", "geometry": {"type": "Point", "coordinates": [-85.1551411, 37.5726028]}, "properties": {"location": "KENTUCKY, UNITED STATES OF AMERICA", "country": "UNITED STATES OF AMERICA", "state": "KENTUCKY", "count": 2}}, {"type": "Feature", "geometry": {"type": "Point", "coordinates": [38.4313975, 1.4419683]}, "properties": {"location": "KENYA", "country": "KENYA", "state": "UNKNOWN", "count": 7}}, {"type": "Feature", "geometry": {"type": "Point", "coordinates": [173.6641773, 0.3448612]}, "properties": {"location": "KIRIBATI", "country": "KIRIBATI", "state": "UNKNOWN", "count": 3}}, {"type": "Feature", "geometry": {"type": "Point", "coordinates": [127.6961188, 36.638392]}, "properties": {"location": "KOREA", "country": "KOREA", "state": "UNKNOWN", "count": 8}}, {"type": "Feature", "geometry": {"type": "Point", "coordinates": [47.4979476, 29.2733964]}, "properties": {"location": "KUWAIT", "country": "KUWAIT", "state": "AL ASIMAH", "count": 1}}, {"type": "Feature", "geometry": {"type": "Point", "coordinates": [47.4979476, 29.2733964]}, "properties": {"location": "KUWAIT", "country": "KUWAIT", "state": "UNKNOWN", "count": 5}}, {"type": "Feature", "geometry": {"type": "Point", "coordinates": [103.378253, 20.0171109]}, "properties": {"location": "LAO PEOPLE'S DEMOCRATIC REPUBLIC", "country": "LAO PEOPLE'S DEMOCRATIC REPUBLIC", "state": "UNKNOWN", "count": 4}}, {"type": "Feature", "geometry": {"type": "Point", "coordinates": [24.7537645, 56.8406494]}, "properties": {"location": "LATVIA", "country": "LATVIA", "state": "UNKNOWN", "count": 1}}, {"type": "Feature", "geometry": {"type": "Point", "coordinates": [35.843409, 33.8750629]}, "properties": {"location": "LEBANON", "country": "LEBANON", "state": "UNKNOWN", "count": 2}}, {"type": "Feature", "geometry": {"type": "Point", "coordinates": [18.1236723, 26.8234472]}, "properties": {"location": "LIBYA", "country": "LIBYA", "state": "UNKNOWN", "count": 3}}, {"type": "Feature", "geometry": {"type": "Point", "coordinates": [-92.007126, 30.8703881]}, "properties": {"location": "LOUISIANA, UNITED STATES OF AMERICA", "country": "UNITED STATES OF AMERICA", "state": "LOUISIANA", "count": 1}}, {"type": "Feature", "geometry": {"type": "Point", "coordinates": [113.5514142, 22.1757605]}, "properties": {"location": "MACAO, CHINA", "country": "CHINA", "state": "MACAO", "count": 4}}, {"type": "Feature", "geometry": {"type": "Point", "coordinates": [113.5514142, 22.1757605]}, "properties": {"location": "MACAU", "country": "MACAU", "state": "UNKNOWN", "count": 30}}, {"type": "Feature", "geometry": {"type": "Point", "coordinates": [-68.8590201, 45.709097]}, "properties": {"location": "MAINE, UNITED STATES OF AMERICA", "country": "UNITED STATES OF AMERICA", "state": "MAINE", "count": 2}}, {"type": "Feature", "geometry": {"type": "Point", "coordinates": [33.9301963, -13.2687204]}, "properties": {"location": "MALAWI", "country": "MALAWI", "state": "UNKNOWN", "count": 3}}, {"type": "Feature", "geometry": {"type": "Point", "coordinates": [102.2656823, 4.5693754]}, "properties": {"location": "MALAYSIA", "country": "MALAYSIA", "state": "FEDERAL TERRITORY OF KUALA LUMPUR", "count": 11}}, {"type": "Feature", "geometry": {"type": "Point", "coordinates": [102.2656823, 4.5693754]}, "properties": {"location": "MALAYSIA", "country": "MALAYSIA", "state": "JOHOR", "count": 4}}, {"type": "Feature", "geometry": {"type": "Point", "coordinates": [102.2656823, 4.5693754]}, "properties": {"location": "MALAYSIA", "country": "MALAYSIA", "state": "JOHORE", "count": 1}}, {"type": "Feature", "geometry": {"type": "Point", "coordinates": [102.2656823, 4.5693754]}, "properties": {"location": "MALAYSIA", "country": "MALAYSIA", "state": "KEDAH", "count": 2}}, {"type": "Feature", "geometry": {"type": "Point", "coordinates": [102.2656823, 4.5693754]}, "properties": {"location": "MALAYSIA", "country": "MALAYSIA", "state": "KELANTAN", "count": 2}}, {"type": "Feature", "geometry": {"type": "Point", "coordinates": [102.2656823, 4.5693754]}, "properties": {"location": "MALAYSIA", "country": "MALAYSIA", "state": "KUALA LUMPUR", "count": 4}}, {"type": "Feature", "geometry": {"type": "Point", "coordinates": [102.2656823, 4.5693754]}, "properties": {"location": "MALAYSIA", "country": "MALAYSIA", "state": "MALACCA", "count": 1}}, {"type": "Feature", "geometry": {"type": "Point", "coordinates": [102.2656823, 4.5693754]}, "properties": {"location": "MALAYSIA", "country": "MALAYSIA", "state": "PAHANG", "count": 2}}, {"type": "Feature", "geometry": {"type": "Point", "coordinates": [102.2656823, 4.5693754]}, "properties": {"location": "MALAYSIA", "country": "MALAYSIA", "state": "PENANG", "count": 5}}, {"type": "Feature", "geometry": {"type": "Point", "coordinates": [102.2656823, 4.5693754]}, "properties": {"location": "MALAYSIA", "country": "MALAYSIA", "state": "PERAK", "count": 1}}, {"type": "Feature", "geometry": {"type": "Point", "coordinates": [102.2656823, 4.5693754]}, "properties": {"location": "MALAYSIA", "country": "MALAYSIA", "state": "PERLIS", "count": 2}}, {"type": "Feature", "geometry": {"type": "Point", "coordinates": [102.2656823, 4.5693754]}, "properties": {"location": "MALAYSIA", "country": "MALAYSIA", "state": "PULAU PINANG", "count": 1}}, {"type": "Feature", "geometry": {"type": "Point", "coordinates": [102.2656823, 4.5693754]}, "properties": {"location": "MALAYSIA", "country": "MALAYSIA", "state": "SARAWAK", "count": 3}}, {"type": "Feature", "geometry": {"type": "Point", "coordinates": [102.2656823, 4.5693754]}, "properties": {"location": "MALAYSIA", "country": "MALAYSIA", "state": "SELANGOR", "count": 12}}, {"type": "Feature", "geometry": {"type": "Point", "coordinates": [102.2656823, 4.5693754]}, "properties": {"location": "MALAYSIA", "country": "MALAYSIA", "state": "UNKNOWN", "count": 410}}, {"type": "Feature", "geometry": {"type": "Point", "coordinates": [102.2656823, 4.5693754]}, "properties": {"location": "MALAYSIA", "country": "MALAYSIA", "state": "WILAYAH PERSEKUTUAN KUALA LUMPUR", "count": 6}}, {"type": "Feature", "geometry": {"type": "Point", "coordinates": [73.2244152, 3.7203503]}, "properties": {"location": "MALDIVES", "country": "MALDIVES", "state": "UNKNOWN", "count": 3}}, {"type": "Feature", "geometry": {"type": "Point", "coordinates": [14.4476911, 35.8885993]}, "properties": {"location": "MALTA", "country": "MALTA", "state": "UNKNOWN", "count": 1}}, {"type": "Feature", "geometry": {"type": "Point", "coordinates": [-76.9382069, 39.5162401]}, "properties": {"location": "MARYLAND, UNITED STATES OF AMERICA", "country": "UNITED STATES OF AMERICA", "state": "MARYLAND", "count": 17}}, {"type": "Feature", "geometry": {"type": "Point", "coordinates": [-72.032366, 42.3788774]}, "properties": {"location": "MASSACHUSETTS, UNITED STATES OF AMERICA", "country": "UNITED STATES OF AMERICA", "state": "MASSACHUSETTS", "count": 55}}, {"type": "Feature", "geometry": {"type": "Point", "coordinates": [57.5703566, -20.2759451]}, "properties": {"location": "MAURITIUS", "country": "MAURITIUS", "state": "UNKNOWN", "count": 8}}, {"type": "Feature", "geometry": {"type": "Point", "coordinates": [-102.0077097, 23.6585116]}, "properties": {"location": "MEXICO", "country": "MEXICO", "state": "MEXICO CITY", "count": 1}}, {"type": "Feature", "geometry": {"type": "Point", "coordinates": [-102.0077097, 23.6585116]}, "properties": {"location": "MEXICO", "country": "MEXICO", "state": "QUINTANA ROO", "count": 1}}, {"type": "Feature", "geometry": {"type": "Point", "coordinates": [-102.0077097, 23.6585116]}, "properties": {"location": "MEXICO", "country": "MEXICO", "state": "UNKNOWN", "count": 3}}, {"type": "Feature", "geometry": {"type": "Point", "coordinates": [-84.6824346, 43.6211955]}, "properties": {"location": "MICHIGAN, UNITED STATES OF AMERICA", "country": "UNITED STATES OF AMERICA", "state": "MICHIGAN", "count": 6}}, {"type": "Feature", "geometry": {"type": "Point", "coordinates": [-94.6113288, 45.9896587]}, "properties": {"location": "MINNESOTA, UNITED STATES OF AMERICA", "country": "UNITED STATES OF AMERICA", "state": "MINNESOTA", "count": 13}}, {"type": "Feature", "geometry": {"type": "Point", "coordinates": [-89.7348497, 32.9715285]}, "properties": {"location": "MISSISSIPPI, UNITED STATES OF AMERICA", "country": "UNITED STATES OF AMERICA", "state": "MISSISSIPPI", "count": 1}}, {"type": "Feature", "geometry": {"type": "Point", "coordinates": [-92.5617875, 38.7604815]}, "properties": {"location": "MISSOURI, UNITED STATES OF AMERICA", "country": "UNITED STATES OF AMERICA", "state": "MISSOURI", "count": 6}}, {"type": "Feature", "geometry": {"type": "Point", "coordinates": [103.8499736, 46.8250388]}, "properties": {"location": "MONGOLIA", "country": "MONGOLIA", "state": "UNKNOWN", "count": 4}}, {"type": "Feature", "geometry": {"type": "Point", "coordinates": [-109.638757, 47.3752671]}, "properties": {"location": "MONTANA, UNITED STATES OF AMERICA", "country": "UNITED STATES OF AMERICA", "state": "MONTANA", "count": 1}}, {"type": "Feature", "geometry": {"type": "Point", "coordinates": [95.9999652, 17.1750495]}, "properties": {"location": "MYANMAR", "country": "MYANMAR", "state": "UNKNOWN", "count": 28}}, {"type": "Feature", "geometry": {"type": "Point", "coordinates": [17.3231107, -23.2335499]}, "properties": {"location": "NAMIBIA", "country": "NAMIBIA", "state": "KHOMAS", "count": 1}}, {"type": "Feature", "geometry": {"type": "Point", "coordinates": [17.3231107, -23.2335499]}, "properties": {"location": "NAMIBIA", "country": "NAMIBIA", "state": "UNKNOWN", "count": 2}}, {"type": "Feature", "geometry": {"type": "Point", "coordinates": [-99.5873816, 41.7370229]}, "properties": {"location": "NEBRASKA, UNITED STATES OF AMERICA", "country": "UNITED STATES OF AMERICA", "state": "NEBRASKA", "count": 1}}, {"type": "Feature", "geometry": {"type": "Point", "coordinates": [83.9999901, 28.3780464]}, "properties": {"location": "NEPAL", "country": "NEPAL", "state": "UNKNOWN", "count": 11}}, {"type": "Feature", "geometry": {"type": "Point", "coordinates": [5.6343227, 52.2434979]}, "properties": {"location": "NETHERLANDS", "country": "NETHERLANDS", "state": "GELDERLAND", "count": 1}}, {"type": "Feature", "geometry": {"type": "Point", "coordinates": [5.6343227, 52.2434979]}, "properties": {"location": "NETHERLANDS", "country": "NETHERLANDS", "state": "GRONINGEN", "count": 1}}, {"type": "Feature", "geometry": {"type": "Point", "coordinates": [5.6343227, 52.2434979]}, "properties": {"location": "NETHERLANDS", "country": "NETHERLANDS", "state": "NOORD-BRABANT", "count": 1}}, {"type": "Feature", "geometry": {"type": "Point", "coordinates": [5.6343227, 52.2434979]}, "properties": {"location": "NETHERLANDS", "country": "NETHERLANDS", "state": "NOORD-HOLLAND", "count": 2}}, {"type": "Feature", "geometry": {"type": "Point", "coordinates": [5.6343227, 52.2434979]}, "properties": {"location": "NETHERLANDS", "country": "NETHERLANDS", "state": "NORTH BRABANT", "count": 1}}, {"type": "Feature", "geometry": {"type": "Point", "coordinates": [5.6343227, 52.2434979]}, "properties": {"location": "NETHERLANDS", "country": "NETHERLANDS", "state": "NORTH HOLLAND", "count": 5}}, {"type": "Feature", "geometry": {"type": "Point", "coordinates": [5.6343227, 52.2434979]}, "properties": {"location": "NETHERLANDS", "country": "NETHERLANDS", "state": "SOUTH HOLLAND", "count": 3}}, {"type": "Feature", "geometry": {"type": "Point", "coordinates": [5.6343227, 52.2434979]}, "properties": {"location": "NETHERLANDS", "country": "NETHERLANDS", "state": "UNKNOWN", "count": 13}}, {"type": "Feature", "geometry": {"type": "Point", "coordinates": [5.6343227, 52.2434979]}, "properties": {"location": "NETHERLANDS", "country": "NETHERLANDS", "state": "UTRECHT", "count": 1}}, {"type": "Feature", "geometry": {"type": "Point", "coordinates": [172.8344077, -41.5000831]}, "properties": {"location": "NEUSEELAND", "country": "NEUSEELAND", "state": "AUCKLAND", "count": 1}}, {"type": "Feature", "geometry": {"type": "Point", "coordinates": [-116.853722, 39.5158825]}, "properties": {"location": "NEVADA, UNITED STATES OF AMERICA", "country": "UNITED STATES OF AMERICA", "state": "NEVADA", "count": 3}}, {"type": "Feature", "geometry": {"type": "Point", "coordinates": [161.2117626, -20.6378428]}, "properties": {"location": "NEW CALEDONIA", "country": "NEW CALEDONIA", "state": "UNKNOWN", "count": 5}}, {"type": "Feature", "geometry": {"type": "Point", "coordinates": [-71.6553992, 43.4849133]}, "properties": {"location": "NEW HAMPSHIRE, UNITED STATES OF AMERICA", "country": "UNITED STATES OF AMERICA", "state": "NEW HAMPSHIRE", "count": 1}}, {"type": "Feature", "geometry": {"type": "Point", "coordinates": [-74.4041622, 40.0757384]}, "properties": {"location": "NEW JERSEY, UNITED STATES OF AMERICA", "country": "UNITED STATES OF AMERICA", "state": "NEW JERSEY", "count": 29}}, {"type": "Feature", "geometry": {"type": "Point", "coordinates": [-105.996047, 34.5802074]}, "properties": {"location": "NEW MEXICO, UNITED STATES OF AMERICA", "country": "UNITED STATES OF AMERICA", "state": "NEW MEXICO", "count": 3}}, {"type": "Feature", "geometry": {"type": "Point", "coordinates": [-74.0060152, 40.7127281]}, "properties": {"location": "NEW YORK, UNITED STATES OF AMERICA", "country": "UNITED STATES OF AMERICA", "state": "NEW YORK", "count": 98}}, {"type": "Feature", "geometry": {"type": "Point", "coordinates": [172.8344077, -41.5000831]}, "properties": {"location": "NEW ZEALAND", "country": "NEW ZEALAND", "state": "AUCKLAND", "count": 65}}, {"type": "Feature", "geometry": {"type": "Point", "coordinates": [172.8344077, -41.5000831]}, "properties": {"location": "NEW ZEALAND", "country": "NEW ZEALAND", "state": "BAY OF PLENTY", "count": 3}}, {"type": "Feature", "geometry": {"type": "Point", "coordinates": [172.8344077, -41.5000831]}, "properties": {"location": "NEW ZEALAND", "country": "NEW ZEALAND", "state": "CANTERBURY", "count": 11}}, {"type": "Feature", "geometry": {"type": "Point", "coordinates": [172.8344077, -41.5000831]}, "properties": {"location": "NEW ZEALAND", "country": "NEW ZEALAND", "state": "CHRISTCHURCH", "count": 17}}, {"type": "Feature", "geometry": {"type": "Point", "coordinates": [172.8344077, -41.5000831]}, "properties": {"location": "NEW ZEALAND", "country": "NEW ZEALAND", "state": "DUNEDIN", "count": 7}}, {"type": "Feature", "geometry": {"type": "Point", "coordinates": [172.8344077, -41.5000831]}, "properties": {"location": "NEW ZEALAND", "country": "NEW ZEALAND", "state": "HAMILTON", "count": 5}}, {"type": "Feature", "geometry": {"type": "Point", "coordinates": [172.8344077, -41.5000831]}, "properties": {"location": "NEW ZEALAND", "country": "NEW ZEALAND", "state": "HAWES'S BAY", "count": 1}}, {"type": "Feature", "geometry": {"type": "Point", "coordinates": [172.8344077, -41.5000831]}, "properties": {"location": "NEW ZEALAND", "country": "NEW ZEALAND", "state": "HAWKE'S BAY", "count": 2}}, {"type": "Feature", "geometry": {"type": "Point", "coordinates": [172.8344077, -41.5000831]}, "properties": {"location": "NEW ZEALAND", "country": "NEW ZEALAND", "state": "MANAWAT\u016a-WHANGANUI", "count": 3}}, {"type": "Feature", "geometry": {"type": "Point", "coordinates": [172.8344077, -41.5000831]}, "properties": {"location": "NEW ZEALAND", "country": "NEW ZEALAND", "state": "NAPIER-HASTINGS", "count": 8}}, {"type": "Feature", "geometry": {"type": "Point", "coordinates": [172.8344077, -41.5000831]}, "properties": {"location": "NEW ZEALAND", "country": "NEW ZEALAND", "state": "NELSON", "count": 3}}, {"type": "Feature", "geometry": {"type": "Point", "coordinates": [172.8344077, -41.5000831]}, "properties": {"location": "NEW ZEALAND", "country": "NEW ZEALAND", "state": "NEW PLYMOUTH", "count": 4}}, {"type": "Feature", "geometry": {"type": "Point", "coordinates": [172.8344077, -41.5000831]}, "properties": {"location": "NEW ZEALAND", "country": "NEW ZEALAND", "state": "NORTHLAND", "count": 1}}, {"type": "Feature", "geometry": {"type": "Point", "coordinates": [172.8344077, -41.5000831]}, "properties": {"location": "NEW ZEALAND", "country": "NEW ZEALAND", "state": "OTAGO", "count": 5}}, {"type": "Feature", "geometry": {"type": "Point", "coordinates": [172.8344077, -41.5000831]}, "properties": {"location": "NEW ZEALAND", "country": "NEW ZEALAND", "state": "OTAGO & SOUTHLAND", "count": 1}}, {"type": "Feature", "geometry": {"type": "Point", "coordinates": [172.8344077, -41.5000831]}, "properties": {"location": "NEW ZEALAND", "country": "NEW ZEALAND", "state": "PALMERSTON NORTH", "count": 5}}, {"type": "Feature", "geometry": {"type": "Point", "coordinates": [172.8344077, -41.5000831]}, "properties": {"location": "NEW ZEALAND", "country": "NEW ZEALAND", "state": "SOUTH YORKSHIRE", "count": 1}}, {"type": "Feature", "geometry": {"type": "Point", "coordinates": [172.8344077, -41.5000831]}, "properties": {"location": "NEW ZEALAND", "country": "NEW ZEALAND", "state": "TASMAN", "count": 3}}, {"type": "Feature", "geometry": {"type": "Point", "coordinates": [172.8344077, -41.5000831]}, "properties": {"location": "NEW ZEALAND", "country": "NEW ZEALAND", "state": "UNKNOWN", "count": 27}}, {"type": "Feature", "geometry": {"type": "Point", "coordinates": [172.8344077, -41.5000831]}, "properties": {"location": "NEW ZEALAND", "country": "NEW ZEALAND", "state": "WAIKATO", "count": 5}}, {"type": "Feature", "geometry": {"type": "Point", "coordinates": [172.8344077, -41.5000831]}, "properties": {"location": "NEW ZEALAND", "country": "NEW ZEALAND", "state": "WELLINGTON", "count": 19}}, {"type": "Feature", "geometry": {"type": "Point", "coordinates": [172.8344077, -41.5000831]}, "properties": {"location": "NEW ZEALAND", "country": "NEW ZEALAND", "state": "WHANGAREI", "count": 1}}, {"type": "Feature", "geometry": {"type": "Point", "coordinates": [7.9999721, 9.6000359]}, "properties": {"location": "NIGERIA", "country": "NIGERIA", "state": "UNKNOWN", "count": 4}}, {"type": "Feature", "geometry": {"type": "Point", "coordinates": [-79.0392919, 35.6729639]}, "properties": {"location": "NORTH CAROLINA, UNITED STATES OF AMERICA", "country": "UNITED STATES OF AMERICA", "state": "NORTH CAROLINA", "count": 8}}, {"type": "Feature", "geometry": {"type": "Point", "coordinates": [-100.540737, 47.6201461]}, "properties": {"location": "NORTH DAKOTA, UNITED STATES OF AMERICA", "country": "UNITED STATES OF AMERICA", "state": "NORTH DAKOTA", "count": 1}}, {"type": "Feature", "geometry": {"type": "Point", "coordinates": [8.7876653, 61.1529386]}, "properties": {"location": "NORWAY", "country": "NORWAY", "state": "OSLO", "count": 7}}, {"type": "Feature", "geometry": {"type": "Point", "coordinates": [8.7876653, 61.1529386]}, "properties": {"location": "NORWAY", "country": "NORWAY", "state": "TR\u00d8NDELAG", "count": 3}}, {"type": "Feature", "geometry": {"type": "Point", "coordinates": [8.7876653, 61.1529386]}, "properties": {"location": "NORWAY", "country": "NORWAY", "state": "UNKNOWN", "count": 13}}, {"type": "Feature", "geometry": {"type": "Point", "coordinates": [8.7876653, 61.1529386]}, "properties": {"location": "NORWAY", "country": "NORWAY", "state": "VEST-AGDER COUNTY", "count": 1}}, {"type": "Feature", "geometry": {"type": "Point", "coordinates": [8.7876653, 61.1529386]}, "properties": {"location": "NORWAY", "country": "NORWAY", "state": "VESTLAND", "count": 1}}, {"type": "Feature", "geometry": {"type": "Point", "coordinates": [147.2869493, -31.8759835]}, "properties": {"location": "NSW, AUSTRALIA", "country": "AUSTRALIA", "state": "NSW", "count": 37086}}, {"type": "Feature", "geometry": {"type": "Point", "coordinates": [133.2303375, -19.8516101]}, "properties": {"location": "NT, AUSTRALIA", "country": "AUSTRALIA", "state": "NT", "count": 100}}, {"type": "Feature", "geometry": {"type": "Point", "coordinates": [-82.6881395, 40.2253569]}, "properties": {"location": "OHIO, UNITED STATES OF AMERICA", "country": "UNITED STATES OF AMERICA", "state": "OHIO", "count": 7}}, {"type": "Feature", "geometry": {"type": "Point", "coordinates": [-97.2684063, 34.9550817]}, "properties": {"location": "OKLAHOMA, UNITED STATES OF AMERICA", "country": "UNITED STATES OF AMERICA", "state": "OKLAHOMA", "count": 1}}, {"type": "Feature", "geometry": {"type": "Point", "coordinates": [57.0036901, 21.0000287]}, "properties": {"location": "OMAN", "country": "OMAN", "state": "UNKNOWN", "count": 10}}, {"type": "Feature", "geometry": {"type": "Point", "coordinates": [-120.737257, 43.9792797]}, "properties": {"location": "OREGON, UNITED STATES OF AMERICA", "country": "UNITED STATES OF AMERICA", "state": "OREGON", "count": 15}}, {"type": "Feature", "geometry": {"type": "Point", "coordinates": [71.247499, 30.3308401]}, "properties": {"location": "PAKISTAN", "country": "PAKISTAN", "state": "PUNJAB", "count": 2}}, {"type": "Feature", "geometry": {"type": "Point", "coordinates": [71.247499, 30.3308401]}, "properties": {"location": "PAKISTAN", "country": "PAKISTAN", "state": "SINDH", "count": 1}}, {"type": "Feature", "geometry": {"type": "Point", "coordinates": [71.247499, 30.3308401]}, "properties": {"location": "PAKISTAN", "country": "PAKISTAN", "state": "UNKNOWN", "count": 51}}, {"type": "Feature", "geometry": {"type": "Point", "coordinates": [144.2489081, -5.6816069]}, "properties": {"location": "PAPUA NEW GUINEA", "country": "PAPUA NEW GUINEA", "state": "EASTERN HIGHLANDS", "count": 1}}, {"type": "Feature", "geometry": {"type": "Point", "coordinates": [144.2489081, -5.6816069]}, "properties": {"location": "PAPUA NEW GUINEA", "country": "PAPUA NEW GUINEA", "state": "MOROBE", "count": 1}}, {"type": "Feature", "geometry": {"type": "Point", "coordinates": [144.2489081, -5.6816069]}, "properties": {"location": "PAPUA NEW GUINEA", "country": "PAPUA NEW GUINEA", "state": "NATIONAL CAPITAL DISTRICT", "count": 3}}, {"type": "Feature", "geometry": {"type": "Point", "coordinates": [144.2489081, -5.6816069]}, "properties": {"location": "PAPUA NEW GUINEA", "country": "PAPUA NEW GUINEA", "state": "UNKNOWN", "count": 26}}, {"type": "Feature", "geometry": {"type": "Point", "coordinates": [-77.7278831, 40.9699889]}, "properties": {"location": "PENNSYLVANIA, UNITED STATES OF AMERICA", "country": "UNITED STATES OF AMERICA", "state": "PENNSYLVANIA", "count": 20}}, {"type": "Feature", "geometry": {"type": "Point", "coordinates": [-75.0458515, -6.8699697]}, "properties": {"location": "PERU", "country": "PERU", "state": "BC", "count": 1}}, {"type": "Feature", "geometry": {"type": "Point", "coordinates": [-75.0458515, -6.8699697]}, "properties": {"location": "PERU", "country": "PERU", "state": "UNKNOWN", "count": 5}}, {"type": "Feature", "geometry": {"type": "Point", "coordinates": [122.7312101, 12.7503486]}, "properties": {"location": "PHILIPPINES", "country": "PHILIPPINES", "state": "CALABARZON", "count": 2}}, {"type": "Feature", "geometry": {"type": "Point", "coordinates": [122.7312101, 12.7503486]}, "properties": {"location": "PHILIPPINES", "country": "PHILIPPINES", "state": "CENTRAL LUZON", "count": 1}}, {"type": "Feature", "geometry": {"type": "Point", "coordinates": [122.7312101, 12.7503486]}, "properties": {"location": "PHILIPPINES", "country": "PHILIPPINES", "state": "NATIONAL CAPITAL REGION", "count": 3}}, {"type": "Feature", "geometry": {"type": "Point", "coordinates": [122.7312101, 12.7503486]}, "properties": {"location": "PHILIPPINES", "country": "PHILIPPINES", "state": "UNKNOWN", "count": 104}}, {"type": "Feature", "geometry": {"type": "Point", "coordinates": [19.134422, 52.215933]}, "properties": {"location": "POLAND", "country": "POLAND", "state": "LESSER POLAND DISTRICT", "count": 1}}, {"type": "Feature", "geometry": {"type": "Point", "coordinates": [19.134422, 52.215933]}, "properties": {"location": "POLAND", "country": "POLAND", "state": "UNKNOWN", "count": 2}}, {"type": "Feature", "geometry": {"type": "Point", "coordinates": [-8.1353519, 39.6621648]}, "properties": {"location": "PORTUGAL", "country": "PORTUGAL", "state": "UNKNOWN", "count": 3}}, {"type": "Feature", "geometry": {"type": "Point", "coordinates": [-66.4858295, 18.2247706]}, "properties": {"location": "PUERTO RICO", "country": "PUERTO RICO", "state": "UNKNOWN", "count": 2}}, {"type": "Feature", "geometry": {"type": "Point", "coordinates": [51.2295295, 25.3336984]}, "properties": {"location": "QATAR", "country": "QATAR", "state": "UNKNOWN", "count": 11}}, {"type": "Feature", "geometry": {"type": "Point", "coordinates": [144.5844903, -22.1646782]}, "properties": {"location": "QLD, AUSTRALIA", "country": "AUSTRALIA", "state": "QLD", "count": 1194}}, {"type": "Feature", "geometry": {"type": "Point", "coordinates": [24.5928742, -23.1681782]}, "properties": {"location": "REPUBLIC OF BOTSWANA", "country": "REPUBLIC OF BOTSWANA", "state": "UNKNOWN", "count": 2}}, {"type": "Feature", "geometry": {"type": "Point", "coordinates": [11.5091174, 3.8858497]}, "properties": {"location": "REPUBLIC OF CAMEROON", "country": "REPUBLIC OF CAMEROON", "state": "UNKNOWN", "count": 1}}, {"type": "Feature", "geometry": {"type": "Point", "coordinates": [179.0122737, -18.1239696]}, "properties": {"location": "REPUBLIC OF FIJI", "country": "REPUBLIC OF FIJI", "state": "UNKNOWN", "count": 5}}, {"type": "Feature", "geometry": {"type": "Point", "coordinates": [57.5703566, -20.2759451]}, "properties": {"location": "REPUBLIC OF MAURITIUS", "country": "REPUBLIC OF MAURITIUS", "state": "UNKNOWN", "count": 1}}, {"type": "Feature", "geometry": {"type": "Point", "coordinates": [-0.1528081, 51.5216044]}, "properties": {"location": "REPUBLIC OF THE MALDIVES", "country": "REPUBLIC OF THE MALDIVES", "state": "UNKNOWN", "count": 1}}, {"type": "Feature", "geometry": {"type": "Point", "coordinates": [-71.5992372, 41.7962409]}, "properties": {"location": "RHODE ISLAND, UNITED STATES OF AMERICA", "country": "UNITED STATES OF AMERICA", "state": "RHODE ISLAND", "count": 2}}, {"type": "Feature", "geometry": {"type": "Point", "coordinates": [97.7453061, 64.6863136]}, "properties": {"location": "RUSSIAN FEDERATION", "country": "RUSSIAN FEDERATION", "state": "UNKNOWN", "count": 2}}, {"type": "Feature", "geometry": {"type": "Point", "coordinates": [135.6301212, -30.5343665]}, "properties": {"location": "SA, AUSTRALIA", "country": "AUSTRALIA", "state": "SA", "count": 380}}, {"type": "Feature", "geometry": {"type": "Point", "coordinates": [-172.12005, -13.7693895]}, "properties": {"location": "SAMOA", "country": "SAMOA", "state": "UNKNOWN", "count": 3}}, {"type": "Feature", "geometry": {"type": "Point", "coordinates": [42.3528328, 25.6242618]}, "properties": {"location": "SAUDI ARABIA", "country": "SAUDI ARABIA", "state": "MAKKAH", "count": 1}}, {"type": "Feature", "geometry": {"type": "Point", "coordinates": [42.3528328, 25.6242618]}, "properties": {"location": "SAUDI ARABIA", "country": "SAUDI ARABIA", "state": "RIYADH", "count": 1}}, {"type": "Feature", "geometry": {"type": "Point", "coordinates": [42.3528328, 25.6242618]}, "properties": {"location": "SAUDI ARABIA", "country": "SAUDI ARABIA", "state": "TABUK", "count": 1}}, {"type": "Feature", "geometry": {"type": "Point", "coordinates": [42.3528328, 25.6242618]}, "properties": {"location": "SAUDI ARABIA", "country": "SAUDI ARABIA", "state": "UNKNOWN", "count": 47}}, {"type": "Feature", "geometry": {"type": "Point", "coordinates": [8.2319736, 46.7985624]}, "properties": {"location": "SCHWEIZ", "country": "SCHWEIZ", "state": "ZUG", "count": 1}}, {"type": "Feature", "geometry": {"type": "Point", "coordinates": [8.2319736, 46.7985624]}, "properties": {"location": "SCHWEIZ", "country": "SCHWEIZ", "state": "ZURICH", "count": 2}}, {"type": "Feature", "geometry": {"type": "Point", "coordinates": [-4.1140518, 56.7861112]}, "properties": {"location": "SCOTLAND, UNITED KINGDOM", "country": "UNITED KINGDOM", "state": "SCOTLAND", "count": 10}}, {"type": "Feature", "geometry": {"type": "Point", "coordinates": [21.0765743, 44.0243229]}, "properties": {"location": "SERBIA", "country": "SERBIA", "state": "UNKNOWN", "count": 1}}, {"type": "Feature", "geometry": {"type": "Point", "coordinates": [121.4700152, 31.2312707]}, "properties": {"location": "SHANGHAI, CHINA", "country": "CHINA", "state": "SHANGHAI", "count": 28}}, {"type": "Feature", "geometry": {"type": "Point", "coordinates": [-11.8400269, 8.6400349]}, "properties": {"location": "SIERRA LEONE", "country": "SIERRA LEONE", "state": "UNKNOWN", "count": 1}}, {"type": "Feature", "geometry": {"type": "Point", "coordinates": [103.8194992, 1.357107]}, "properties": {"location": "SINGAPORE", "country": "SINGAPORE", "state": "UNKNOWN", "count": 621}}, {"type": "Feature", "geometry": {"type": "Point", "coordinates": [19.4528646, 48.7411522]}, "properties": {"location": "SLOVAKIA", "country": "SLOVAKIA", "state": "IL", "count": 1}}, {"type": "Feature", "geometry": {"type": "Point", "coordinates": [19.4528646, 48.7411522]}, "properties": {"location": "SLOVAKIA", "country": "SLOVAKIA", "state": "UNKNOWN", "count": 1}}, {"type": "Feature", "geometry": {"type": "Point", "coordinates": [14.8153333, 46.1199444]}, "properties": {"location": "SLOVENIA", "country": "SLOVENIA", "state": "UNKNOWN", "count": 3}}, {"type": "Feature", "geometry": {"type": "Point", "coordinates": [159.1070694, -8.7053941]}, "properties": {"location": "SOLOMON ISLANDS", "country": "SOLOMON ISLANDS", "state": "UNKNOWN", "count": 3}}, {"type": "Feature", "geometry": {"type": "Point", "coordinates": [49.083416, 8.3676771]}, "properties": {"location": "SOMALIA", "country": "SOMALIA", "state": "UNKNOWN", "count": 1}}, {"type": "Feature", "geometry": {"type": "Point", "coordinates": [24.991639, -28.8166236]}, "properties": {"location": "SOUTH AFRICA", "country": "SOUTH AFRICA", "state": "GAUTENG", "count": 2}}, {"type": "Feature", "geometry": {"type": "Point", "coordinates": [24.991639, -28.8166236]}, "properties": {"location": "SOUTH AFRICA", "country": "SOUTH AFRICA", "state": "UNKNOWN", "count": 11}}, {"type": "Feature", "geometry": {"type": "Point", "coordinates": [24.991639, -28.8166236]}, "properties": {"location": "SOUTH AFRICA", "country": "SOUTH AFRICA", "state": "WESTERN CAPE", "count": 2}}, {"type": "Feature", "geometry": {"type": "Point", "coordinates": [-80.4363743, 33.6874388]}, "properties": {"location": "SOUTH CAROLINA, UNITED STATES OF AMERICA", "country": "UNITED STATES OF AMERICA", "state": "SOUTH CAROLINA", "count": 1}}, {"type": "Feature", "geometry": {"type": "Point", "coordinates": [127.6961188, 36.638392]}, "properties": {"location": "SOUTH KOREA", "country": "SOUTH KOREA", "state": "DAEJEON", "count": 1}}, {"type": "Feature", "geometry": {"type": "Point", "coordinates": [127.6961188, 36.638392]}, "properties": {"location": "SOUTH KOREA", "country": "SOUTH KOREA", "state": "SEOUL", "count": 4}}, {"type": "Feature", "geometry": {"type": "Point", "coordinates": [127.6961188, 36.638392]}, "properties": {"location": "SOUTH KOREA", "country": "SOUTH KOREA", "state": "UNKNOWN", "count": 82}}, {"type": "Feature", "geometry": {"type": "Point", "coordinates": [-4.8379791, 39.3260685]}, "properties": {"location": "SPAIN", "country": "SPAIN", "state": "CATALU\u00d1A", "count": 1}}, {"type": "Feature", "geometry": {"type": "Point", "coordinates": [-4.8379791, 39.3260685]}, "properties": {"location": "SPAIN", "country": "SPAIN", "state": "COMMUNITY OF MADRID", "count": 2}}, {"type": "Feature", "geometry": {"type": "Point", "coordinates": [-4.8379791, 39.3260685]}, "properties": {"location": "SPAIN", "country": "SPAIN", "state": "COMUNIDAD DE MADRID", "count": 1}}, {"type": "Feature", "geometry": {"type": "Point", "coordinates": [-4.8379791, 39.3260685]}, "properties": {"location": "SPAIN", "country": "SPAIN", "state": "MADRID", "count": 2}}, {"type": "Feature", "geometry": {"type": "Point", "coordinates": [-4.8379791, 39.3260685]}, "properties": {"location": "SPAIN", "country": "SPAIN", "state": "UNKNOWN", "count": 5}}, {"type": "Feature", "geometry": {"type": "Point", "coordinates": [-4.8379791, 39.3260685]}, "properties": {"location": "SPAIN", "country": "SPAIN", "state": "VALENCIAN COMMUNITY", "count": 1}}, {"type": "Feature", "geometry": {"type": "Point", "coordinates": [80.7137847, 7.5554942]}, "properties": {"location": "SRI LANKA", "country": "SRI LANKA", "state": "UNKNOWN", "count": 30}}, {"type": "Feature", "geometry": {"type": "Point", "coordinates": [80.7137847, 7.5554942]}, "properties": {"location": "SRI LANKA", "country": "SRI LANKA", "state": "WESTERN PROVINCE", "count": 1}}, {"type": "Feature", "geometry": {"type": "Point", "coordinates": [-61.2765569, 12.90447]}, "properties": {"location": "ST VINCENT AND THE GRENADINES", "country": "ST VINCENT AND THE GRENADINES", "state": "UNKNOWN", "count": 1}}, {"type": "Feature", "geometry": {"type": "Point", "coordinates": [29.4917691, 14.5844444]}, "properties": {"location": "SUDAN", "country": "SUDAN", "state": "UNKNOWN", "count": 5}}, {"type": "Feature", "geometry": {"type": "Point", "coordinates": [-56.0771187, 4.1413025]}, "properties": {"location": "SURINAME", "country": "SURINAME", "state": "UNKNOWN", "count": 1}}, {"type": "Feature", "geometry": {"type": "Point", "coordinates": [14.5208584, 59.6749712]}, "properties": {"location": "SVERIGE", "country": "SVERIGE", "state": "V\u00c4STRA G\u00d6TALAND", "count": 1}}, {"type": "Feature", "geometry": {"type": "Point", "coordinates": [31.3991317, -26.5624806]}, "properties": {"location": "SWAZILAND", "country": "SWAZILAND", "state": "UNKNOWN", "count": 1}}, {"type": "Feature", "geometry": {"type": "Point", "coordinates": [14.5208584, 59.6749712]}, "properties": {"location": "SWEDEN", "country": "SWEDEN", "state": "GOTLAND COUNTY", "count": 1}}, {"type": "Feature", "geometry": {"type": "Point", "coordinates": [14.5208584, 59.6749712]}, "properties": {"location": "SWEDEN", "country": "SWEDEN", "state": "KALMAR", "count": 1}}, {"type": "Feature", "geometry": {"type": "Point", "coordinates": [14.5208584, 59.6749712]}, "properties": {"location": "SWEDEN", "country": "SWEDEN", "state": "SDERMANLAND", "count": 2}}, {"type": "Feature", "geometry": {"type": "Point", "coordinates": [14.5208584, 59.6749712]}, "properties": {"location": "SWEDEN", "country": "SWEDEN", "state": "STOCKHOLM COUNTY", "count": 2}}, {"type": "Feature", "geometry": {"type": "Point", "coordinates": [14.5208584, 59.6749712]}, "properties": {"location": "SWEDEN", "country": "SWEDEN", "state": "UNKNOWN", "count": 12}}, {"type": "Feature", "geometry": {"type": "Point", "coordinates": [14.5208584, 59.6749712]}, "properties": {"location": "SWEDEN", "country": "SWEDEN", "state": "UPPSALA", "count": 1}}, {"type": "Feature", "geometry": {"type": "Point", "coordinates": [14.5208584, 59.6749712]}, "properties": {"location": "SWEDEN", "country": "SWEDEN", "state": "\u00d6REBRO COUNTY", "count": 1}}, {"type": "Feature", "geometry": {"type": "Point", "coordinates": [8.2319736, 46.7985624]}, "properties": {"location": "SWITZERLAND", "country": "SWITZERLAND", "state": "BASEL", "count": 1}}, {"type": "Feature", "geometry": {"type": "Point", "coordinates": [8.2319736, 46.7985624]}, "properties": {"location": "SWITZERLAND", "country": "SWITZERLAND", "state": "BERNE", "count": 1}}, {"type": "Feature", "geometry": {"type": "Point", "coordinates": [8.2319736, 46.7985624]}, "properties": {"location": "SWITZERLAND", "country": "SWITZERLAND", "state": "GENEVA", "count": 2}}, {"type": "Feature", "geometry": {"type": "Point", "coordinates": [8.2319736, 46.7985624]}, "properties": {"location": "SWITZERLAND", "country": "SWITZERLAND", "state": "LUCERNE", "count": 2}}, {"type": "Feature", "geometry": {"type": "Point", "coordinates": [8.2319736, 46.7985624]}, "properties": {"location": "SWITZERLAND", "country": "SWITZERLAND", "state": "SCHWYZ", "count": 1}}, {"type": "Feature", "geometry": {"type": "Point", "coordinates": [8.2319736, 46.7985624]}, "properties": {"location": "SWITZERLAND", "country": "SWITZERLAND", "state": "UNKNOWN", "count": 30}}, {"type": "Feature", "geometry": {"type": "Point", "coordinates": [8.2319736, 46.7985624]}, "properties": {"location": "SWITZERLAND", "country": "SWITZERLAND", "state": "ZUG", "count": 2}}, {"type": "Feature", "geometry": {"type": "Point", "coordinates": [8.2319736, 46.7985624]}, "properties": {"location": "SWITZERLAND", "country": "SWITZERLAND", "state": "ZURICH", "count": 6}}, {"type": "Feature", "geometry": {"type": "Point", "coordinates": [120.9820179, 23.9739374]}, "properties": {"location": "TAIWAN", "country": "TAIWAN", "state": "TAICHUNG CITY", "count": 2}}, {"type": "Feature", "geometry": {"type": "Point", "coordinates": [120.9820179, 23.9739374]}, "properties": {"location": "TAIWAN", "country": "TAIWAN", "state": "TAIPEI CITY", "count": 7}}, {"type": "Feature", "geometry": {"type": "Point", "coordinates": [120.9820179, 23.9739374]}, "properties": {"location": "TAIWAN", "country": "TAIWAN", "state": "TAIWAN", "count": 1}}, {"type": "Feature", "geometry": {"type": "Point", "coordinates": [120.9820179, 23.9739374]}, "properties": {"location": "TAIWAN", "country": "TAIWAN", "state": "TAOYUAN CITY", "count": 1}}, {"type": "Feature", "geometry": {"type": "Point", "coordinates": [120.9820179, 23.9739374]}, "properties": {"location": "TAIWAN", "country": "TAIWAN", "state": "UNKNOWN", "count": 69}}, {"type": "Feature", "geometry": {"type": "Point", "coordinates": [35.7878438, -6.5247123]}, "properties": {"location": "TANZANIA", "country": "TANZANIA", "state": "UNKNOWN", "count": 8}}, {"type": "Feature", "geometry": {"type": "Point", "coordinates": [146.6366887, -42.035067]}, "properties": {"location": "TASMANIA, AUSTRALIA", "country": "AUSTRALIA", "state": "TASMANIA", "count": 192}}, {"type": "Feature", "geometry": {"type": "Point", "coordinates": [-86.2820081, 35.7730076]}, "properties": {"location": "TENNESSEE, UNITED STATES OF AMERICA", "country": "UNITED STATES OF AMERICA", "state": "TENNESSEE", "count": 3}}, {"type": "Feature", "geometry": {"type": "Point", "coordinates": [-98.5456116, 31.2638905]}, "properties": {"location": "TEXAS, UNITED STATES OF AMERICA", "country": "UNITED STATES OF AMERICA", "state": "TEXAS", "count": 31}}, {"type": "Feature", "geometry": {"type": "Point", "coordinates": [100.83273, 14.8971921]}, "properties": {"location": "THAILAND", "country": "THAILAND", "state": "BANGKOK", "count": 6}}, {"type": "Feature", "geometry": {"type": "Point", "coordinates": [100.83273, 14.8971921]}, "properties": {"location": "THAILAND", "country": "THAILAND", "state": "BANGKOK CITY", "count": 14}}, {"type": "Feature", "geometry": {"type": "Point", "coordinates": [100.83273, 14.8971921]}, "properties": {"location": "THAILAND", "country": "THAILAND", "state": "CHIANG MAI", "count": 1}}, {"type": "Feature", "geometry": {"type": "Point", "coordinates": [100.83273, 14.8971921]}, "properties": {"location": "THAILAND", "country": "THAILAND", "state": "KHON KAEN", "count": 1}}, {"type": "Feature", "geometry": {"type": "Point", "coordinates": [100.83273, 14.8971921]}, "properties": {"location": "THAILAND", "country": "THAILAND", "state": "PHUKET", "count": 1}}, {"type": "Feature", "geometry": {"type": "Point", "coordinates": [100.83273, 14.8971921]}, "properties": {"location": "THAILAND", "country": "THAILAND", "state": "THAILAND", "count": 1}}, {"type": "Feature", "geometry": {"type": "Point", "coordinates": [100.83273, 14.8971921]}, "properties": {"location": "THAILAND", "country": "THAILAND", "state": "UNKNOWN", "count": 205}}, {"type": "Feature", "geometry": {"type": "Point", "coordinates": [-175.202642, -19.9160819]}, "properties": {"location": "TONGA", "country": "TONGA", "state": "UNKNOWN", "count": 2}}, {"type": "Feature", "geometry": {"type": "Point", "coordinates": [35.2316631, 39.294076]}, "properties": {"location": "TURKEY", "country": "TURKEY", "state": "AFYONKARAHISAR", "count": 1}}, {"type": "Feature", "geometry": {"type": "Point", "coordinates": [35.2316631, 39.294076]}, "properties": {"location": "TURKEY", "country": "TURKEY", "state": "UNKNOWN", "count": 5}}, {"type": "Feature", "geometry": {"type": "Point", "coordinates": [35.2316631, 39.294076]}, "properties": {"location": "TURKEY", "country": "TURKEY", "state": "\u0130STANBUL", "count": 2}}, {"type": "Feature", "geometry": {"type": "Point", "coordinates": [32.2166578, 1.5333554]}, "properties": {"location": "UGANDA", "country": "UGANDA", "state": "UNKNOWN", "count": 4}}, {"type": "Feature", "geometry": {"type": "Point", "coordinates": [53.9994829, 24.0002488]}, "properties": {"location": "UNITED ARAB EMIRATES", "country": "UNITED ARAB EMIRATES", "state": "ABU DHABI EMIRATE", "count": 3}}, {"type": "Feature", "geometry": {"type": "Point", "coordinates": [53.9994829, 24.0002488]}, "properties": {"location": "UNITED ARAB EMIRATES", "country": "UNITED ARAB EMIRATES", "state": "DUBAI", "count": 1}}, {"type": "Feature", "geometry": {"type": "Point", "coordinates": [53.9994829, 24.0002488]}, "properties": {"location": "UNITED ARAB EMIRATES", "country": "UNITED ARAB EMIRATES", "state": "UNKNOWN", "count": 31}}, {"type": "Feature", "geometry": {"type": "Point", "coordinates": [-3.2765753, 54.7023545]}, "properties": {"location": "UNITED KINGDOM", "country": "UNITED KINGDOM", "state": "UNKNOWN", "count": 217}}, {"type": "Feature", "geometry": {"type": "Point", "coordinates": [-100.445882, 39.7837304]}, "properties": {"location": "UNITED STATES OF AMERICA", "country": "UNITED STATES OF AMERICA", "state": "UNKNOWN", "count": 32}}, {"type": "Feature", "geometry": {"type": "Point", "coordinates": [-56.0201525, -32.8755548]}, "properties": {"location": "URUGUAY", "country": "URUGUAY", "state": "UNKNOWN", "count": 4}}, {"type": "Feature", "geometry": {"type": "Point", "coordinates": [-121.9086549, 37.6742192]}, "properties": {"location": "US VIRGIN ISLANDS, UNITED STATES OF AMERICA", "country": "UNITED STATES OF AMERICA", "state": "US VIRGIN ISLANDS", "count": 1}}, {"type": "Feature", "geometry": {"type": "Point", "coordinates": [-111.714358, 39.4225192]}, "properties": {"location": "UTAH, UNITED STATES OF AMERICA", "country": "UNITED STATES OF AMERICA", "state": "UTAH", "count": 6}}, {"type": "Feature", "geometry": {"type": "Point", "coordinates": [63.9528098, 41.32373]}, "properties": {"location": "UZBEKISTAN", "country": "UZBEKISTAN", "state": "UNKNOWN", "count": 1}}, {"type": "Feature", "geometry": {"type": "Point", "coordinates": [168.1069154, -16.5255069]}, "properties": {"location": "VANUATU", "country": "VANUATU", "state": "UNKNOWN", "count": 1}}, {"type": "Feature", "geometry": {"type": "Point", "coordinates": [-66.1109318, 8.0018709]}, "properties": {"location": "VENEZUELA", "country": "VENEZUELA", "state": "UNKNOWN", "count": 1}}, {"type": "Feature", "geometry": {"type": "Point", "coordinates": [-72.5002608, 44.5990718]}, "properties": {"location": "VERMONT, UNITED STATES OF AMERICA", "country": "UNITED STATES OF AMERICA", "state": "VERMONT", "count": 2}}, {"type": "Feature", "geometry": {"type": "Point", "coordinates": [144.6780052, -36.5986096]}, "properties": {"location": "VIC, AUSTRALIA", "country": "AUSTRALIA", "state": "VIC", "count": 1456}}, {"type": "Feature", "geometry": {"type": "Point", "coordinates": [107.9650855, 15.9266657]}, "properties": {"location": "VIETNAM", "country": "VIETNAM", "state": "HANOI", "count": 2}}, {"type": "Feature", "geometry": {"type": "Point", "coordinates": [107.9650855, 15.9266657]}, "properties": {"location": "VIETNAM", "country": "VIETNAM", "state": "UNKNOWN", "count": 61}}, {"type": "Feature", "geometry": {"type": "Point", "coordinates": [-78.4927721, 37.1232245]}, "properties": {"location": "VIRGINIA, UNITED STATES OF AMERICA", "country": "UNITED STATES OF AMERICA", "state": "VIRGINIA", "count": 16}}, {"type": "Feature", "geometry": {"type": "Point", "coordinates": [121.0187246, -25.2303005]}, "properties": {"location": "WA, AUSTRALIA", "country": "AUSTRALIA", "state": "WA", "count": 618}}, {"type": "Feature", "geometry": {"type": "Point", "coordinates": [-3.73893, 52.2928116]}, "properties": {"location": "WALES, UNITED KINGDOM", "country": "UNITED KINGDOM", "state": "WALES", "count": 2}}, {"type": "Feature", "geometry": {"type": "Point", "coordinates": [-77.0365427, 38.8950368]}, "properties": {"location": "WASHINGTON, UNITED STATES OF AMERICA", "country": "UNITED STATES OF AMERICA", "state": "WASHINGTON", "count": 38}}, {"type": "Feature", "geometry": {"type": "Point", "coordinates": [-80.8408415, 38.4758406]}, "properties": {"location": "WEST VIRGINIA, UNITED STATES OF AMERICA", "country": "UNITED STATES OF AMERICA", "state": "WEST VIRGINIA", "count": 2}}, {"type": "Feature", "geometry": {"type": "Point", "coordinates": [-89.6884637, 44.4308975]}, "properties": {"location": "WISCONSIN, UNITED STATES OF AMERICA", "country": "UNITED STATES OF AMERICA", "state": "WISCONSIN", "count": 7}}, {"type": "Feature", "geometry": {"type": "Point", "coordinates": [-107.568534, 43.1700264]}, "properties": {"location": "WYOMING, UNITED STATES OF AMERICA", "country": "UNITED STATES OF AMERICA", "state": "WYOMING", "count": 1}}, {"type": "Feature", "geometry": {"type": "Point", "coordinates": [27.5589884, -14.5189121]}, "properties": {"location": "ZAMBIA", "country": "ZAMBIA", "state": "UNKNOWN", "count": 8}}, {"type": "Feature", "geometry": {"type": "Point", "coordinates": [29.7468414, -18.4554963]}, "properties": {"location": "ZIMBABWE", "country": "ZIMBABWE", "state": "UNKNOWN", "count": 5}}]}